{"type":"FeatureCollection","crs":{"type":"name","properties":{"name":"EPSG:4326"}},"features":[{"type":"Feature","id":1,"geometry":{"type":"Point","coordinates":[-71.961560999840231,12.257226989241955]},"properties":{"OBJECTID":1,"NOMBRE":"Puerto Bolívar Cerrejón Zona Norte S.A. \"CZN\" (Intercor y Carbones del Cerrejón)","ZONA_PORT":"ZONA PORTUARIA DE LA GUAJIRA","COD_PR_IRE":"P-03","CCNARIO":"Puerto Bolívar Cerrejón Zona Norte S.A. \"CZN\" (Intercor y Carbones del Cerrejón)"}},{"type":"Feature","id":2,"geometry":{"type":"Point","coordinates":[-75.502662119261345,10.306628009642113]},"properties":{"OBJECTID":2,"NOMBRE":"Sociedad Portuaria DEXTON S.A.","ZONA_PORT":"ZONA PORTUARIA DE CARTAGENA","COD_PR_IRE":"P-26","CCNARIO":"Sociedad Portuaria DEXTON S.A."}},{"type":"Feature","id":3,"geometry":{"type":"Point","coordinates":[-74.215554839584115,11.067096959401015]},"properties":{"OBJECTID":3,"NOMBRE":"American Port Company Inc. - Puerto Drummond","ZONA_PORT":"ZONA PORTUARIA DE SANTA MARTA Y CIENAGA","COD_PR_IRE":"P-06","CCNARIO":"American Port Company Inc. - Puerto Drummond"}},{"type":"Feature","id":4,"geometry":{"type":"Point","coordinates":[-75.505578030701543,10.31519677707657]},"properties":{"OBJECTID":4,"NOMBRE":"Sociedad Ecopetrol S.A.","ZONA_PORT":"ZONA PORTUARIA DE CARTAGENA","COD_PR_IRE":"P-23","CCNARIO":"Sociedad Ecopetrol S.A."}},{"type":"Feature","id":5,"geometry":{"type":"Point","coordinates":[-75.506739839671809,10.344780989317213]},"properties":{"OBJECTID":5,"NOMBRE":"Sociedad Portuaria Puerto de Mamonal S.A. - Muelle Adicional 135 mts","ZONA_PORT":"ZONA PORTUARIA DE CARTAGENA","COD_PR_IRE":"P-19","CCNARIO":"Sociedad Portuaria Puerto de Mamonal S.A. - Muelle Adicional 135 mts"}},{"type":"Feature","id":6,"geometry":{"type":"Point","coordinates":[-75.507843959830836,10.299069989355988]},"properties":{"OBJECTID":6,"NOMBRE":"Sociedad Oiltanking Colombia - (antes Sociedad Dow Química de Colombia)","ZONA_PORT":"ZONA PORTUARIA DE CARTAGENA","COD_PR_IRE":"P-29","CCNARIO":"Sociedad Oiltanking Colombia - (antes Sociedad Dow Química de Colombia)"}},{"type":"Feature","id":7,"geometry":{"type":"Point","coordinates":[-73.38050388044968,11.262159000175613]},"properties":{"OBJECTID":7,"NOMBRE":"Sociedad Puerto Brisa S.A.","ZONA_PORT":"ZONA PORTUARIA DE LA GUAJIRA","COD_PR_IRE":"P-02","CCNARIO":"Sociedad Puerto Brisa S.A."}},{"type":"Feature","id":8,"geometry":{"type":"Point","coordinates":[-74.223044999726937,11.058743969902407]},"properties":{"OBJECTID":8,"NOMBRE":"Sociedad Portuaria Puerto Nuevo S.A.","ZONA_PORT":"ZONA PORTUARIA DE SANTA MARTA Y CIENAGA","COD_PR_IRE":"P-07","CCNARIO":"Sociedad Portuaria Puerto Nuevo S.A."}},{"type":"Feature","id":9,"geometry":{"type":"Point","coordinates":[-75.508054920098459,10.322666009095729]},"properties":{"OBJECTID":9,"NOMBRE":"Sociedad Portuaria de la Zona Atlántica – Cartagena\u00A0","ZONA_PORT":"ZONA PORTUARIA DE CARTAGENA","COD_PR_IRE":"P-22","CCNARIO":"Sociedad Portuaria de la Zona Atlántica – Cartagena\u00A0"}},{"type":"Feature","id":10,"geometry":{"type":"Point","coordinates":[-71.988756119898994,12.164220989117926]},"properties":{"OBJECTID":10,"NOMBRE":"Sociedad Portuaria de la Península S.A . PENSOPORT S.A","ZONA_PORT":"ZONA PORTUARIA DE LA GUAJIRA","COD_PR_IRE":"P-01","CCNARIO":"Sociedad Portuaria de la Península S.A . PENSOPORT S.A"}},{"type":"Feature","id":11,"geometry":{"type":"Point","coordinates":[-74.215868040177895,11.251874969292608]},"properties":{"OBJECTID":11,"NOMBRE":"Sociedad Portuaria Regional de Santa Marta S.A.","ZONA_PORT":"ZONA PORTUARIA DE SANTA MARTA Y CIENAGA","COD_PR_IRE":"P-04","CCNARIO":"Sociedad Portuaria Regional de Santa Marta S.A."}},{"type":"Feature","id":12,"geometry":{"type":"Point","coordinates":[-74.229702119657077,11.15954001000447]},"properties":{"OBJECTID":12,"NOMBRE":"Sociedad Ecopetrol S.A. – Terminal Marítimo de Pozos Colorados - CENIT Santa Marta Transporte y Logística de Hidrocarburos S.A.S.","ZONA_PORT":"ZONA PORTUARIA DE SANTA MARTA Y CIENAGA","COD_PR_IRE":"P-05","CCNARIO":"Sociedad Ecopetrol S.A.  – Terminal Marítimo de Pozos Colorados - CENIT Santa Marta Transporte y Log"}},{"type":"Feature","id":13,"geometry":{"type":"Point","coordinates":[-74.238620039882903,11.040771959502957]},"properties":{"OBJECTID":13,"NOMBRE":"Sociedad Portuaria Río Córdoba S.A","ZONA_PORT":"ZONA PORTUARIA DE SANTA MARTA Y CIENAGA","COD_PR_IRE":"P-08","CCNARIO":"Sociedad Portuaria Río Córdoba S.A"}},{"type":"Feature","id":14,"geometry":{"type":"Point","coordinates":[-75.508374960036349,10.321500959868152]},"properties":{"OBJECTID":14,"NOMBRE":"Sociedad Portuaria ExxonMobil de Colombia S.A.","ZONA_PORT":"ZONA PORTUARIA DE CARTAGENA","COD_PR_IRE":"P-25","CCNARIO":"Sociedad Portuaria ExxonMobil de Colombia S.A."}},{"type":"Feature","id":15,"geometry":{"type":"Point","coordinates":[-75.534849000081238,10.404152999625413]},"properties":{"OBJECTID":15,"NOMBRE":"Sociedad Portuaria Regional de Cartagena S.A.","ZONA_PORT":"ZONA PORTUARIA DE CARTAGENA","COD_PR_IRE":"P-11","CCNARIO":"Sociedad Portuaria Regional de Cartagena S.A."}},{"type":"Feature","id":16,"geometry":{"type":"Point","coordinates":[-75.527334000663586,10.398665969623162]},"properties":{"OBJECTID":16,"NOMBRE":"Compañía Puertos Asociados S.A. – COMPAS S.A. (antes Sociedad Marítimo Muelles El Bosque S.A.)","ZONA_PORT":"ZONA PORTUARIA DE CARTAGENA","COD_PR_IRE":"P-14","CCNARIO":"Compañía Puertos Asociados S.A. – COMPAS S.A. (antes Sociedad Marítimo Muelles El Bosque S.A.)"}},{"type":"Feature","id":17,"geometry":{"type":"Point","coordinates":[-75.510885959819177,10.355623019852164]},"properties":{"OBJECTID":17,"NOMBRE":"Sociedad Portuaria Central Cartagena S.A.","ZONA_PORT":"ZONA PORTUARIA DE CARTAGENA","COD_PR_IRE":"P-18","CCNARIO":"Sociedad Portuaria Central Cartagena S.A."}},{"type":"Feature","id":18,"geometry":{"type":"Point","coordinates":[-75.511292039695832,10.338049980188652]},"properties":{"OBJECTID":18,"NOMBRE":"Sociedad Zona Franca ARGOS S.A.S. (Cementos Argos)","ZONA_PORT":"ZONA PORTUARIA DE CARTAGENA","COD_PR_IRE":"P-20","CCNARIO":"Sociedad Zona Franca ARGOS  S.A.S.  (Cementos Argos)"}},{"type":"Feature","id":19,"geometry":{"type":"Point","coordinates":[-75.526341839804047,10.405735019519689]},"properties":{"OBJECTID":19,"NOMBRE":"Sociedad Portuaria Algranel S.A.","ZONA_PORT":"ZONA PORTUARIA DE CARTAGENA","COD_PR_IRE":"P-13","CCNARIO":"Sociedad Portuaria Algranel S.A."}},{"type":"Feature","id":20,"geometry":{"type":"Point","coordinates":[-75.537804960130757,10.405802969595531]},"properties":{"OBJECTID":20,"NOMBRE":"Sociedad Portuaria Regional de Cartagena S.A. - Muelle No.9","ZONA_PORT":"ZONA PORTUARIA DE CARTAGENA","COD_PR_IRE":"P-12","CCNARIO":"Sociedad Portuaria Regional de Cartagena S.A. – Muelle No.9"}},{"type":"Feature","id":21,"geometry":{"type":"Point","coordinates":[-75.512851920079981,10.298157029990398]},"properties":{"OBJECTID":21,"NOMBRE":"Sociedad Portuaria del Dique S.A. (antes Sociedad Operadora Zona Franca Industrial de Bienes y Servicios de Cartagena de Indias S.A. – ZONAFRANCA S.A.)","ZONA_PORT":"ZONA PORTUARIA DE CARTAGENA","COD_PR_IRE":"P-30","CCNARIO":"Sociedad Portuaria del Dique S.A. (antes Sociedad Operadora Zona Franca Industrial de Bienes y Servi"}},{"type":"Feature","id":22,"geometry":{"type":"Point","coordinates":[-75.518209079885082,10.294751970094884]},"properties":{"OBJECTID":22,"NOMBRE":"Sociedad Portuaria Bavaria S.A.","ZONA_PORT":"ZONA PORTUARIA DE CARTAGENA","COD_PR_IRE":"P-31","CCNARIO":"Sociedad Portuaria Bavaria S.A."}},{"type":"Feature","id":23,"geometry":{"type":"Point","coordinates":[-75.504404880380889,10.299634019861559]},"properties":{"OBJECTID":23,"NOMBRE":"Sociedad VOPAK COLOMBIA S.A. (antes Sociedad Colombiana de Terminales S.A. – COLTERMINALES)","ZONA_PORT":"ZONA PORTUARIA DE CARTAGENA","COD_PR_IRE":"P-28","CCNARIO":"Sociedad VOPAK COLOMBIA S.A. (antes Sociedad Colombiana de Terminales S.A. – COLTERMINALES)"}},{"type":"Feature","id":24,"geometry":{"type":"Point","coordinates":[-75.503138039588805,10.311081029732781]},"properties":{"OBJECTID":24,"NOMBRE":"Refinería de Cartagena S.A. REFICAR","ZONA_PORT":"ZONA PORTUARIA DE CARTAGENA","COD_PR_IRE":"P-24","CCNARIO":"Refinería de Cartagena S.A. REFICAR -"}},{"type":"Feature","id":25,"geometry":{"type":"Point","coordinates":[-75.501483120649482,10.303570980183878]},"properties":{"OBJECTID":25,"NOMBRE":"Sociedad Portuaria Buenavista (antes Sociedad Portuaria Mamonal – Abonos Colombianos S.A. ABOCOL)","ZONA_PORT":"ZONA PORTUARIA DE CARTAGENA","COD_PR_IRE":"P-27","CCNARIO":"Sociedad Portuaria Buenavista (antes Sociedad Portuaria Mamonal – Abonos Colombianos  S.A. ABOCOL)"}},{"type":"Feature","id":26,"geometry":{"type":"Point","coordinates":[-75.508592040190479,10.369655009536343]},"properties":{"OBJECTID":26,"NOMBRE":"Sociedad Portuaria Transportes Marítima San Andrés y Providencia S.A. - TRANSMARSYP","ZONA_PORT":"ZONA PORTUARIA DE CARTAGENA","COD_PR_IRE":"P-17","CCNARIO":"Sociedad Portuaria Transportes Marítima San Andrés y Providencia S.A."}},{"type":"Feature","id":27,"geometry":{"type":"Point","coordinates":[-75.509232120066258,10.376092979972118]},"properties":{"OBJECTID":27,"NOMBRE":"Sociedad Portuaria Terminal de Contenedores de Cartagena CONTECAR","ZONA_PORT":"ZONA PORTUARIA DE CARTAGENA","COD_PR_IRE":"P-16","CCNARIO":"Sociedad Portuaria Terminal de Contenedores de Cartagena CONTECAR"}},{"type":"Feature","id":28,"geometry":{"type":"Point","coordinates":[-75.509412120273112,10.328273009558261]},"properties":{"OBJECTID":28,"NOMBRE":"Sociedad Portuaria Olefinas y Derivados S.A.","ZONA_PORT":"ZONA PORTUARIA DE CARTAGENA","COD_PR_IRE":"P-21","CCNARIO":"Sociedad Portuaria Olefinas y Derivados S.A."}},{"type":"Feature","id":29,"geometry":{"type":"Point","coordinates":[-75.522643919281393,10.386240029718341]},"properties":{"OBJECTID":29,"NOMBRE":"Sociedad Transpetrol Ltda.","ZONA_PORT":"ZONA PORTUARIA DE CARTAGENA","COD_PR_IRE":"P-15","CCNARIO":"Sociedad Transpetrol Ltda."}},{"type":"Feature","id":30,"geometry":{"type":"Point","coordinates":[-75.515010840677689,10.383617969958157]},"properties":{"OBJECTID":30,"NOMBRE":"Grupo COREMAR SHOREBASE S.A. (Retramar)","ZONA_PORT":"ZONA PORTUARIA DE CARTAGENA","COD_PR_IRE":"P-37","CCNARIO":"Grupo COREMAR SHOREBASE S.A. (Retramar)"}},{"type":"Feature","id":31,"geometry":{"type":"Point","coordinates":[-75.533821920345304,10.287667979761251]},"properties":{"OBJECTID":31,"NOMBRE":"Sociedad Portuaria Puerto Bahía S.A.","ZONA_PORT":"ZONA PORTUARIA DE CARTAGENA","COD_PR_IRE":"P-32","CCNARIO":"Sociedad Portuaria Puerto Bahía S.A."}},{"type":"Feature","id":32,"geometry":{"type":"Point","coordinates":[-75.693877919730198,9.4110660002907043]},"properties":{"OBJECTID":32,"NOMBRE":"Sociedad Portuaria Palermo S.A. – Muelle Coveñas","ZONA_PORT":"ZONA PORTUARIA DEL GOLFO DE MORROSQUILLO","COD_PR_IRE":"P-41","CCNARIO":"Sociedad Portuaria Palermo S.A. – Muelle Coveñas"}},{"type":"Feature","id":33,"geometry":{"type":"Point","coordinates":[-75.595583879892104,9.4923790196684941]},"properties":{"OBJECTID":33,"NOMBRE":"Compañía de Puertos Asociados S.A. – COMPAS Tolú (antes Sociedad Portuaria Golfo de Morrosquillo)","ZONA_PORT":"ZONA PORTUARIA DEL GOLFO DE MORROSQUILLO","COD_PR_IRE":"P-39","CCNARIO":"Compañía de Puertos Asociados S.A. – COMPAS Tolú (antes Sociedad Portuaria Golfo de Morrosquillo)"}},{"type":"Feature","id":34,"geometry":{"type":"Point","coordinates":[-75.691814040385623,9.4104279897549787]},"properties":{"OBJECTID":34,"NOMBRE":"CENIT Coveñas Transporte y Logística de Hidrocarburos S.A.S.(antes Terminal Petrolero de Coveñas Ecopetrol)","ZONA_PORT":"ZONA PORTUARIA DEL GOLFO DE MORROSQUILLO","COD_PR_IRE":"P-40","CCNARIO":"CENIT  Coveñas  Transporte y Logística de Hidrocarburos S.A.S.(antes Terminal Petrolero de Coveñas E"}},{"type":"Feature","id":35,"geometry":{"type":"Point","coordinates":[-75.703352040064544,9.4127670004916677]},"properties":{"OBJECTID":35,"NOMBRE":"Sociedad Portuaria Oleoducto Central S.A. \"OCENSA S.A.\"","ZONA_PORT":"ZONA PORTUARIA DEL GOLFO DE MORROSQUILLO","COD_PR_IRE":"P-42","CCNARIO":"Sociedad Portuaria Oleoducto Central S.A. \"OCENSA S.A.\""}},{"type":"Feature","id":36,"geometry":{"type":"Point","coordinates":[-76.735554120126494,8.0674620299859718]},"properties":{"OBJECTID":36,"NOMBRE":"Sociedad Portuaria Punta de Vaca S.A.","ZONA_PORT":"ZONA PORTUARIA DE URABA","COD_PR_IRE":"P-44","CCNARIO":"Sociedad Portuaria Punta de Vaca S.A."}},{"type":"Feature","id":37,"geometry":{"type":"Point","coordinates":[-81.700296120069822,12.569869979014751]},"properties":{"OBJECTID":37,"NOMBRE":"Nueva Sociedad Portuaria de la Zona Atlántica S.A.","ZONA_PORT":"ZONA PORTUARIA DE SAN ANDRES","COD_PR_IRE":"P-59","CCNARIO":"Nueva Sociedad Portuaria de la Zona Atlántica S.A."}},{"type":"Feature","id":38,"geometry":{"type":"Point","coordinates":[-77.069157839962315,3.8915710198587083]},"properties":{"OBJECTID":38,"NOMBRE":"Sociedad Portuaria Regional de Buenaventura S.A.","ZONA_PORT":"ZONA PORTUARIA DE BUENAVENTURA","COD_PR_IRE":"P-48","CCNARIO":"Sociedad Portuaria Regional de Buenaventura S.A."}},{"type":"Feature","id":39,"geometry":{"type":"Point","coordinates":[-77.044439879996446,3.8926220404467515]},"properties":{"OBJECTID":39,"NOMBRE":"Sociedad Portuaria Terminal de Contenedores S.A. – TC BUEN S.A. (antes Sociedad Portuaria Complejo Portuario Industrial de Buenaventura)","ZONA_PORT":"ZONA PORTUARIA DE BUENAVENTURA","COD_PR_IRE":"P-47","CCNARIO":"Sociedad Portuaria Terminal de Contenedores S.A. – TC BUEN S.A.  (antes Sociedad Portuaria Complejo"}},{"type":"Feature","id":40,"geometry":{"type":"Point","coordinates":[-77.064135120039737,3.8898809994805714]},"properties":{"OBJECTID":40,"NOMBRE":"Sociedad Grupo Portuario S.A. Lotes A1-A2","ZONA_PORT":"ZONA PORTUARIA DE BUENAVENTURA","COD_PR_IRE":"P-52","CCNARIO":"Sociedad Grupo Portuario S.A. Lotes A1-A2"}},{"type":"Feature","id":41,"geometry":{"type":"Point","coordinates":[-77.062793040166639,3.8904329691782071]},"properties":{"OBJECTID":41,"NOMBRE":"Sociedad Grupo Portuario S.A., 50 mts","ZONA_PORT":"ZONA PORTUARIA DE BUENAVENTURA","COD_PR_IRE":"P-51","CCNARIO":"Sociedad  Grupo Portuario S.A., 50 mts"}},{"type":"Feature","id":42,"geometry":{"type":"Point","coordinates":[-77.063945040231374,3.890314979924415]},"properties":{"OBJECTID":42,"NOMBRE":"Sociedad Grupo Portuario S.A. - El vacío","ZONA_PORT":"ZONA PORTUARIA DE BUENAVENTURA","COD_PR_IRE":"P-50","CCNARIO":"Sociedad Grupo Portuario S.A. - El vacío"}},{"type":"Feature","id":43,"geometry":{"type":"Point","coordinates":[-77.081811120386874,3.9046560297235628]},"properties":{"OBJECTID":43,"NOMBRE":"Sociedad Puerto Industrial Aguadulce S.A.","ZONA_PORT":"ZONA PORTUARIA DE BUENAVENTURA","COD_PR_IRE":"P-46","CCNARIO":"Sociedad Puerto Industrial Aguadulce S.A."}},{"type":"Feature","id":44,"geometry":{"type":"Point","coordinates":[-77.061295079903971,3.8884740299246734]},"properties":{"OBJECTID":44,"NOMBRE":"Compañía de Puertos Asociados .S.A. – COMPAS S.A. Buenaventura (antes Sociedad Portuaria Cementeras Asociadas S.A.- CEMAS)","ZONA_PORT":"ZONA PORTUARIA DE BUENAVENTURA","COD_PR_IRE":"P-53","CCNARIO":"Compañía de Puertos Asociados .S.A. – COMPAS S.A. Buenaventura (antes Sociedad Portuaria Cementeras"}},{"type":"Feature","id":45,"geometry":{"type":"Point","coordinates":[-77.063097960702294,3.8910079795066643]},"properties":{"OBJECTID":45,"NOMBRE":"Agencia Logística de las Fuerzas Militares, Muelle 13","ZONA_PORT":"ZONA PORTUARIA DE BUENAVENTURA","COD_PR_IRE":"P-49","CCNARIO":"Agencia Logística de las Fuerzas Militares, Muelle 13"}},{"type":"Feature","id":46,"geometry":{"type":"Point","coordinates":[-78.731767079986696,1.8179600404635567]},"properties":{"OBJECTID":46,"NOMBRE":"Sociedad Portuaria Regional Tumaco Pacific Port","ZONA_PORT":"ZONA PORTUARIA DE TUMACO","COD_PR_IRE":"P-56","CCNARIO":"Sociedad Portuaria Regional Tumaco Pacific Port"}},{"type":"Feature","id":47,"geometry":{"type":"Point","coordinates":[-74.214710906782898,11.25534072173504]},"properties":{"OBJECTID":47,"NOMBRE":"Sociedad portuaria LAS AMÉRICAS S.A. - Terminal de gránales líquidos del Caribe S.A.S. – TERLICA S.A.S.","ZONA_PORT":"ZONA PORTUARIA DE SANTA MARTA Y CIENAGA","COD_PR_IRE":"P-09","CCNARIO":"Sociedad portuaria LAS AMÉRICAS S.A. - Terminal de gránales líquidos del Caribe S.A.S. – TERLICA S.A"}},{"type":"Feature","id":48,"geometry":{"type":"Point","coordinates":[-75.524111242339927,10.397931544569497]},"properties":{"OBJECTID":48,"NOMBRE":"Sociedad Cocoliso Alcatraz S.A.","ZONA_PORT":"ZONA PORTUARIA DE CARTAGENA","COD_PR_IRE":"P-10","CCNARIO":"Sociedad Cocoliso Alcatraz S.A."}},{"type":"Feature","id":49,"geometry":{"type":"Point","coordinates":[-75.503909518509431,10.300805887748886]},"properties":{"OBJECTID":49,"NOMBRE":"Sociedad Terminal de IFOS","ZONA_PORT":"ZONA PORTUARIA DE CARTAGENA","COD_PR_IRE":"P-33","CCNARIO":"Sociedad Terminal de IFO'S"}},{"type":"Feature","id":50,"geometry":{"type":"Point","coordinates":[-75.504072500845211,10.341977409495982]},"properties":{"OBJECTID":50,"NOMBRE":"Sociedad ATUNAMAR Limitada","ZONA_PORT":"ZONA PORTUARIA DE CARTAGENA","COD_PR_IRE":"P-34","CCNARIO":"Sociedad ATUNAMAR Limitada"}},{"type":"Feature","id":51,"geometry":{"type":"Point","coordinates":[-75.537961955679691,10.408278162870987]},"properties":{"OBJECTID":51,"NOMBRE":"Sociedad Portuaria Operadora Internacional cesión por la Sociedad Portuaria Regional de Cartagena (Edurbe)","ZONA_PORT":"ZONA PORTUARIA DE CARTAGENA","COD_PR_IRE":"P-35","CCNARIO":"Sociedad Portuaria Operadora Internacional cesión por la Sociedad Portuaria Regional de Cartagena"}},{"type":"Feature","id":52,"geometry":{"type":"Point","coordinates":[-75.552560226872913,10.276564771714973]},"properties":{"OBJECTID":52,"NOMBRE":"Sociedad portuaria El Cayao S.A.E.S.P.","ZONA_PORT":"ZONA PORTUARIA DE CARTAGENA","COD_PR_IRE":"P-36","CCNARIO":"Sociedad portuaria El Cayao S.A.E.S.P."}},{"type":"Feature","id":53,"geometry":{"type":"Point","coordinates":[-75.517195761575124,10.296309321585428]},"properties":{"OBJECTID":53,"NOMBRE":"Sociedad Portuaria Bullpesa S.A.","ZONA_PORT":"ZONA PORTUARIA DE CARTAGENA","COD_PR_IRE":"P-38","CCNARIO":"Sociedad Portuaria Bullpesa S.A."}},{"type":"Feature","id":54,"geometry":{"type":"Point","coordinates":[-75.58583538539466,9.5245640865548253]},"properties":{"OBJECTID":54,"NOMBRE":"Empresa Colombiana Pesquera de Tolú - PESTOLÚ S.A.","ZONA_PORT":"ZONA PORTUARIA DEL GOLFO DE MORROSQUILLO","COD_PR_IRE":"P-43","CCNARIO":"Empresa Colombiana Pesquera de Tolú - PESTOLÚ S.A."}},{"type":"Feature","id":55,"geometry":{"type":"Point","coordinates":[-76.716241604566335,7.9321259034293057]},"properties":{"OBJECTID":55,"NOMBRE":"C.I Unión de Bananeros de Urabá - UNIBAN S.A.","ZONA_PORT":"ZONA PORTUARIA DE URABA","COD_PR_IRE":"P-45","CCNARIO":"C.I Unión de Bananeros de Urabá - UNIBAN S.A."}},{"type":"Feature","id":56,"geometry":{"type":"Point","coordinates":[-78.761942818606144,1.8064592574292315]},"properties":{"OBJECTID":56,"NOMBRE":"Sociedad Ecopetrol S.A. – Terminal Marítimo de Tumaco (CENIT Tumaco)","ZONA_PORT":"ZONA PORTUARIA DE TUMACO","COD_PR_IRE":"P-57","CCNARIO":"Sociedad Ecopetrol S.A. – Terminal Marítimo de Tumaco (CENIT Tumaco)"}},{"type":"Feature","id":57,"geometry":{"type":"Point","coordinates":[-76.74261613912347,7.8516123408809664]},"properties":{"OBJECTID":57,"NOMBRE":"Sociedad Promotora Bananera S.A. - Probán S.A.","ZONA_PORT":"ZONA PORTUARIA DE URABA","COD_PR_IRE":"P-60","CCNARIO":"Sociedad Promotora Bananera S.A. - Probán S.A."}},{"type":"Feature","id":58,"geometry":{"type":"Point","coordinates":[-78.757515107236372,1.8119701707271061]},"properties":{"OBJECTID":58,"NOMBRE":"Sociedad Portuaria PETRODECOL S.A.","ZONA_PORT":"ZONA PORTUARIA DE TUMACO","COD_PR_IRE":"P-58","CCNARIO":"Sociedad Portuaria PETRODECOL S.A."}},{"type":"Feature","id":59,"geometry":{"type":"Point","coordinates":[-77.079685457617757,3.8895217688866119]},"properties":{"OBJECTID":59,"NOMBRE":"Sociedad Terminales Marítimos del Pacífico S.A.","ZONA_PORT":"ZONA PORTUARIA DE BUENAVENTURA","COD_PR_IRE":"P-54","CCNARIO":"Sociedad Terminales Marítimos del Pacífico S.A."}},{"type":"Feature","id":60,"geometry":{"type":"Point","coordinates":[-78.760018454687895,1.8195989577657194]},"properties":{"OBJECTID":60,"NOMBRE":"Sociedad Portuaria Puerto Hondo S.A.","ZONA_PORT":"ZONA PORTUARIA DE TUMACO","COD_PR_IRE":"P-55","CCNARIO":"Sociedad Portuaria Puerto Hondo S.A."}}]}